City_Challenge,City,Lat,Lng,Max Temp,Humidity,Cloudiness,Wind Speed,Country,Date
0,Constitucion,23.99,-104.67,51.8,100,90,9.17,MX,2019-11-12 23:47:00
1,Hilo,19.71,-155.08,84.2,62,20,9.17,US,2019-11-12 23:47:01
2,Mataura,-46.19,168.86,63.0,52,100,23.0,NZ,2019-11-12 23:47:01
3,Ribeira Grande,38.52,-28.7,62.6,90,40,7.92,PT,2019-11-12 23:47:01
4,Busselton,-33.64,115.35,71.01,34,0,11.01,AU,2019-11-12 23:45:45
5,Komsomolskiy,67.55,63.78,-7.1,88,0,5.46,RU,2019-11-12 23:47:02
6,Cape Town,-33.93,18.42,64.99,77,20,17.22,ZA,2019-11-12 23:46:07
7,Kapaa,22.08,-159.32,84.2,74,90,3.47,US,2019-11-12 23:47:02
8,Puerto Ayora,-0.74,-90.35,78.8,61,20,9.17,EC,2019-11-12 23:47:02
9,Cayenne,4.94,-52.33,78.8,88,14,5.35,GF,2019-11-12 23:39:40
10,Albany,42.65,-73.75,24.8,53,20,17.22,US,2019-11-12 23:38:40
11,Brae,60.4,-1.35,33.8,92,98,2.24,GB,2019-11-12 23:42:57
12,Rikitea,-23.12,-134.97,72.48,82,75,24.23,PF,2019-11-12 23:38:44
13,Meulaboh,4.14,96.13,79.29,82,69,5.32,ID,2019-11-12 23:39:08
14,Katsuura,33.93,134.5,55.4,87,20,9.17,JP,2019-11-12 23:41:41
15,Barrow,-38.31,-60.23,64.51,92,100,7.02,AR,2019-11-12 23:38:42
16,Beira,43.2,-8.36,60.01,100,75,10.29,ES,2019-11-12 23:41:36
17,Batemans Bay,-35.71,150.18,64.99,42,0,8.01,AU,2019-11-12 23:42:21
18,Kodiak,39.95,-94.76,24.8,49,1,11.41,US,2019-11-12 23:39:12
19,Sisimiut,66.94,-53.67,25.16,74,95,11.72,GL,2019-11-12 23:44:41
20,Bredasdorp,-34.53,20.04,62.01,87,95,4.7,ZA,2019-11-12 23:38:37
21,Camopi,3.17,-52.33,81.5,56,76,5.3,GF,2019-11-12 23:43:47
22,Ourossogui,15.61,-13.32,78.8,34,0,2.24,SN,2019-11-12 23:47:05
23,Yanam,16.73,82.22,73.96,89,7,4.25,IN,2019-11-12 23:47:06
24,Khandbari,27.38,87.21,44.92,43,4,4.74,NP,2019-11-12 23:47:06
25,Talnakh,69.49,88.39,-2.21,77,79,11.18,RU,2019-11-12 23:42:02
26,Castro,-42.48,-73.76,62.6,72,100,6.93,CL,2019-11-12 23:38:52
27,Mahajanga,-15.72,46.32,80.6,88,20,2.24,MG,2019-11-12 23:47:06
28,Punta Arenas,-53.16,-70.91,55.4,58,75,13.87,CL,2019-11-12 23:38:36
29,Aksu,52.04,76.93,21.2,100,91,6.71,KZ,2019-11-12 23:47:07
30,Hualmay,-11.1,-77.61,63.37,86,10,6.53,PE,2019-11-12 23:40:20
31,Jamestown,-33.21,138.6,59.9,48,57,12.8,AU,2019-11-12 23:38:43
32,Lukovetskiy,64.29,41.92,12.2,100,20,2.24,RU,2019-11-12 23:47:08
33,Bambous Virieux,-20.34,57.76,75.99,88,75,7.05,MU,2019-11-12 23:39:02
34,Upernavik,72.79,-56.15,24.1,57,57,9.6,GL,2019-11-12 23:39:03
35,Georgetown,6.8,-58.16,84.2,79,40,4.7,GY,2019-11-12 23:35:11
36,Hobart,-42.88,147.33,57.99,43,40,16.11,AU,2019-11-12 23:39:07
37,Ushuaia,-54.81,-68.31,51.8,66,75,13.87,AR,2019-11-12 23:36:42
38,Yellowknife,62.45,-114.38,19.4,92,90,6.93,CA,2019-11-12 23:39:04
39,Lompoc,34.64,-120.46,72.0,93,90,5.82,US,2019-11-12 23:39:59
40,Nanortalik,60.14,-45.24,33.46,71,99,35.86,GL,2019-11-12 23:39:28
41,Formosa,-15.55,-47.33,76.19,38,18,4.9,BR,2019-11-12 23:47:10
42,Tessalit,20.2,1.01,63.25,29,0,11.56,ML,2019-11-12 23:42:40
43,Wasilla,61.58,-149.44,41.0,64,1,1.88,US,2019-11-12 23:47:10
44,Babylon,40.7,-73.33,34.0,43,1,16.11,US,2019-11-12 23:44:07
45,Vardo,39.62,-77.74,33.01,63,40,18.34,US,2019-11-12 23:39:38
46,Cherskiy,68.75,161.3,10.96,85,33,3.94,RU,2019-11-12 23:38:36
47,Kudahuvadhoo,2.67,72.89,82.81,75,56,11.21,MV,2019-11-12 23:39:31
48,Flin Flon,54.77,-101.88,14.0,66,75,9.17,CA,2019-11-12 23:41:35
49,Iqaluit,63.75,-68.52,19.4,79,90,19.46,CA,2019-11-12 23:39:48
50,Iwanai,42.97,140.51,45.23,52,7,5.5,JP,2019-11-12 23:47:11
51,Chunskiy,56.08,99.63,8.67,60,100,6.11,RU,2019-11-12 23:47:12
52,Ixtapa,20.71,-105.21,86.0,55,75,8.05,MX,2019-11-12 23:47:12
53,Ponta Do Sol,-20.63,-46.0,67.55,90,72,12.35,BR,2019-11-12 23:38:52
54,Qaanaaq,77.48,-69.36,8.33,56,20,6.85,GL,2019-11-12 23:38:54
55,Kansas City,39.08,-94.56,25.0,53,1,9.4,US,2019-11-12 23:45:28
56,Cam Ranh,11.92,109.15,75.2,94,20,1.12,VN,2019-11-12 23:47:13
57,Berezovyy,51.67,135.7,9.72,46,72,5.37,RU,2019-11-12 23:47:13
58,Tuktoyaktuk,69.44,-133.03,-4.01,76,90,24.16,CA,2019-11-12 23:38:58
59,Basqal,40.75,48.39,32.0,52,13,3.06,AZ,2019-11-12 23:47:13
60,Panlaitan,12.12,119.85,80.6,78,100,4.0,PH,2019-11-12 23:47:13
61,Taoudenni,22.68,-3.98,67.14,25,0,8.84,ML,2019-11-12 23:41:56
62,Thompson,55.74,-97.86,14.0,72,90,2.24,CA,2019-11-12 23:39:29
63,Nikolskoye,59.7,30.79,37.4,81,20,11.18,RU,2019-11-12 23:38:53
64,Vaini,15.34,74.49,65.41,87,0,6.69,IN,2019-11-12 23:38:44
65,San Patricio,-26.98,-56.83,79.47,69,28,3.69,PY,2019-11-12 23:39:53
66,Kajaani,64.22,27.73,24.8,92,90,10.29,FI,2019-11-12 23:47:15
67,Chokurdakh,70.62,147.9,16.81,97,100,5.41,RU,2019-11-12 23:38:59
68,Mahibadhoo,3.78,72.97,82.78,76,56,10.54,MV,2019-11-12 23:47:15
69,Bonfim,3.36,-59.84,87.67,53,66,11.52,GY,2019-11-12 23:38:52
70,Avarua,-21.21,-159.78,77.0,83,23,18.34,CK,2019-11-12 23:39:35
71,Kabalo,-6.05,26.92,68.0,98,100,3.11,CD,2019-11-12 23:42:54
72,Fairbanks,64.84,-147.72,19.99,85,1,5.48,US,2019-11-12 23:39:03
73,Esperance,-33.86,121.89,57.2,62,0,12.75,AU,2019-11-12 23:39:09
74,Richards Bay,-28.77,32.06,73.92,86,85,28.19,ZA,2019-11-12 23:39:19
75,Vestmannaeyjar,63.44,-20.27,40.77,78,99,29.21,IS,2019-11-12 23:41:43
76,Comodoro Rivadavia,-45.87,-67.48,51.8,93,40,8.05,AR,2019-11-12 23:44:32
77,Samana,0.12,-76.97,75.2,94,90,1.99,EC,2019-11-12 23:47:17
78,Bathsheba,13.22,-59.52,82.4,78,40,11.41,BB,2019-11-12 23:38:45
79,Mingaora,34.78,72.36,46.54,36,97,9.4,PK,2019-11-12 23:47:18
80,Atuona,-9.8,-139.03,80.37,66,0,5.79,PF,2019-11-12 23:38:33
81,Liverpool,53.41,-2.98,46.99,87,40,8.05,GB,2019-11-12 23:45:00
82,Hermanus,-34.42,19.24,64.0,94,17,1.01,ZA,2019-11-12 23:38:41
83,Snezhnogorsk,69.19,33.23,-2.21,77,20,2.24,RU,2019-11-12 23:43:51
84,Faanui,-16.48,-151.75,79.7,76,9,19.71,PF,2019-11-12 23:39:00
85,Leningradskiy,69.38,178.42,26.69,79,100,17.54,RU,2019-11-12 23:40:24
86,Chuy,-33.69,-53.46,67.75,85,88,12.57,UY,2019-11-12 23:38:48
87,Bluff,-23.58,149.07,83.7,35,11,10.11,AU,2019-11-12 23:38:37
88,Newton,42.34,-71.21,32.0,54,75,12.75,US,2019-11-12 23:43:58
89,Boca Do Acre,-8.76,-67.39,79.92,72,55,1.9,BR,2019-11-12 23:47:20
90,Igarka,67.47,86.57,6.22,93,100,12.75,RU,2019-11-12 23:47:20
91,Sao Joao Da Barra,-21.64,-41.05,73.47,85,100,19.93,BR,2019-11-12 23:40:14
92,Mizan Teferi,6.99,35.58,61.81,93,100,3.6,ET,2019-11-12 23:47:21
93,Ust-Kalmanka,52.12,83.31,27.55,77,100,27.6,RU,2019-11-12 23:47:21
94,La Ronge,55.1,-105.3,14.0,66,75,9.17,CA,2019-11-12 23:40:04
95,Awbari,26.59,12.77,55.58,26,0,6.64,LY,2019-11-12 23:41:31
96,Sulangan,11.14,123.72,82.27,73,100,11.16,PH,2019-11-12 23:44:46
97,Erzin,36.95,36.2,63.0,26,0,3.36,TR,2019-11-12 23:47:22
98,Tengelic,46.53,18.71,57.97,74,100,12.48,HU,2019-11-12 23:47:23
99,Inyonga,-6.72,32.06,74.35,50,61,6.46,TZ,2019-11-12 23:47:23
100,Vanimo,-2.67,141.3,83.14,74,84,7.52,PG,2019-11-12 23:41:19
101,Arraial Do Cabo,-22.97,-42.02,71.92,81,98,22.35,BR,2019-11-12 23:38:55
102,Minab,27.15,57.07,62.6,25,0,8.32,IR,2019-11-12 23:47:23
103,Severo-Kurilsk,50.68,156.12,33.57,99,100,11.34,RU,2019-11-12 23:38:34
104,Dikson,73.51,80.55,7.23,95,92,11.95,RU,2019-11-12 23:39:56
105,Pozo Colorado,-23.49,-58.8,81.48,67,68,10.65,PY,2019-11-12 23:47:24
106,New Norfolk,-42.78,147.06,57.99,43,40,16.11,AU,2019-11-12 23:38:30
107,Sao Filipe,14.9,-24.5,74.17,80,96,18.59,CV,2019-11-12 23:40:27
108,Kuching,1.56,110.34,75.2,94,75,1.66,MY,2019-11-12 23:42:13
109,Vila Velha,-3.71,-38.6,86.0,74,0,11.41,BR,2019-11-12 23:42:16
110,Arawa,-3.93,119.75,83.48,71,27,3.33,ID,2019-11-12 23:47:25
111,Egvekinot,66.32,-179.17,22.01,94,100,13.22,RU,2019-11-12 23:35:39
112,Ostrovnoy,68.05,39.51,18.48,78,88,8.23,RU,2019-11-12 23:47:26
113,Cabo San Lucas,22.89,-109.91,82.0,57,40,9.17,MX,2019-11-12 23:39:21
114,Port Hardy,50.7,-127.42,50.0,93,75,5.82,CA,2019-11-12 23:44:05
115,Butaritari,3.07,172.79,81.66,81,95,13.51,KI,2019-11-12 23:39:07
116,Abha,18.22,42.5,57.2,81,0,1.54,SA,2019-11-12 23:47:27
117,Ulaangom,49.98,92.07,8.4,83,94,1.61,MN,2019-11-12 23:47:27
118,Khatanga,71.98,102.47,-21.77,88,57,8.3,RU,2019-11-12 23:38:46
119,Ilam,33.64,46.42,42.8,52,0,6.93,IR,2019-11-12 23:47:27
120,Mangan,27.5,88.54,47.55,44,0,4.34,IN,2019-11-12 23:47:27
121,Saldanha,41.42,-6.55,52.63,93,100,19.64,PT,2019-11-12 23:39:32
122,Sabha,27.03,14.43,56.5,29,27,7.29,LY,2019-11-12 23:47:28
123,Kaitangata,-46.28,169.85,64.99,55,100,4.0,NZ,2019-11-12 23:39:33
124,Hami,42.84,93.51,27.68,48,22,1.23,CN,2019-11-12 23:40:12
125,Baillif,16.02,-61.75,78.8,74,2,3.36,GP,2019-11-12 23:47:28
126,Araripina,-7.58,-40.5,78.3,31,25,8.57,BR,2019-11-12 23:47:28
127,Saint Anthony,43.97,-111.68,48.2,35,1,3.36,US,2019-11-12 23:41:47
128,San Andres,13.32,122.68,75.42,88,100,9.71,PH,2019-11-12 23:39:25
129,Caravelas,-17.73,-39.27,72.37,85,4,4.43,BR,2019-11-12 23:46:36
130,Mareeba,-16.99,145.42,84.99,51,81,3.36,AU,2019-11-12 23:39:04
131,Salalah,17.01,54.1,78.8,74,40,5.82,OM,2019-11-12 23:42:44
132,Ballina,54.11,-9.15,42.01,91,83,1.01,IE,2019-11-12 23:46:22
133,Roma,41.89,12.48,57.2,76,40,4.7,IT,2019-11-12 23:34:38
134,Codrington,-28.95,153.24,78.8,57,90,16.11,AU,2019-11-12 23:39:19
135,Wucheng,29.09,119.57,64.0,91,40,2.37,CN,2019-11-12 23:47:30
136,Bundaberg,-24.87,152.35,86.0,48,0,14.99,AU,2019-11-12 23:39:56
137,Pathanamthitta,9.27,76.79,67.77,94,45,4.56,IN,2019-11-12 23:47:31
138,North Bend,43.41,-124.22,59.0,82,90,3.36,US,2019-11-12 23:38:50
139,Gwadar,25.12,62.33,74.79,41,0,20.45,PK,2019-11-12 23:44:11
140,Aripuana,-9.17,-60.63,74.25,95,100,4.92,BR,2019-11-12 23:47:31
141,Saint-Augustin,45.63,-73.98,19.0,66,40,8.05,CA,2019-11-12 23:44:22
142,Itacare,-14.28,-39.0,80.6,78,20,6.93,BR,2019-11-12 23:47:32
143,Tuatapere,-46.13,167.69,63.0,52,55,23.0,NZ,2019-11-12 23:40:22
144,Beringovskiy,63.05,179.32,34.23,96,93,12.41,RU,2019-11-12 23:38:53
145,Coihaique,-45.58,-72.07,66.2,39,97,4.7,CL,2019-11-12 23:44:41
146,Alofi,-19.06,-169.92,78.8,83,75,5.82,NU,2019-11-12 23:39:52
147,Mar Del Plata,-46.43,-67.52,53.64,86,100,12.01,AR,2019-11-12 23:38:44
148,Tasiilaq,65.61,-37.64,37.4,55,97,24.16,GL,2019-11-12 23:38:35
149,Quatre Cocos,-20.21,57.76,75.99,88,75,8.79,MU,2019-11-12 23:42:20
150,Hasaki,35.73,140.83,55.4,66,75,8.05,JP,2019-11-12 23:38:47
151,Provideniya,64.42,-173.23,37.4,98,90,13.42,RU,2019-11-12 23:38:50
152,Bethel,60.79,-161.76,30.2,79,40,17.22,US,2019-11-12 23:38:33
153,Yar-Sale,66.83,70.83,-6.54,88,14,5.5,RU,2019-11-12 23:42:12
154,Anadyr,64.73,177.51,33.8,86,75,13.42,RU,2019-11-12 23:45:53
155,Aklavik,68.22,-135.01,-0.41,70,90,8.05,CA,2019-11-12 23:44:26
156,Port Blair,11.67,92.75,73.4,100,20,2.24,IN,2019-11-12 23:39:33
157,Pangnirtung,66.15,-65.72,21.2,67,40,3.36,CA,2019-11-12 23:39:00
158,Port Elizabeth,39.31,-74.98,36.0,55,1,5.82,US,2019-11-12 23:38:44
159,Airai,-8.93,125.41,83.91,27,0,6.22,TL,2019-11-12 23:39:16
160,Cidreira,-30.17,-50.22,70.68,83,92,34.65,BR,2019-11-12 23:38:47
161,Isangel,-19.55,169.27,82.4,54,20,5.82,VU,2019-11-12 23:38:54
162,Chancay,-11.56,-77.27,66.2,82,90,13.87,PE,2019-11-12 23:47:36
163,Tefe,-3.35,-64.71,78.8,94,75,1.79,BR,2019-11-12 23:44:23
164,Bilibino,68.06,166.44,15.57,83,53,3.24,RU,2019-11-12 23:41:40
165,Tabas,33.6,56.92,46.4,13,0,4.7,IR,2019-11-12 23:47:37
166,Guerrero Negro,27.97,-114.04,72.88,54,0,16.91,MX,2019-11-12 23:41:42
167,Churapcha,62.0,132.43,-15.85,98,100,1.39,RU,2019-11-12 23:41:35
168,Talara,-4.58,-81.27,66.63,90,23,12.15,PE,2019-11-12 23:42:34
169,Pingliang,35.54,106.68,29.21,52,0,6.31,CN,2019-11-12 23:42:59
170,Gurkovo,42.98,23.69,57.2,76,40,11.41,BG,2019-11-12 23:47:38
171,Port Alfred,-33.59,26.89,64.99,90,0,10.0,ZA,2019-11-12 23:38:35
172,Koryukivka,51.77,32.25,41.09,90,89,12.08,UA,2019-11-12 23:47:39
173,Santa Maria Chiquimula,15.03,-91.33,87.8,58,40,6.93,GT,2019-11-12 23:47:39
174,Presidencia Roque Saenz Pena,-26.79,-60.44,81.03,67,97,5.57,AR,2019-11-12 23:44:09
175,Santa Fe,-31.62,-60.7,78.8,69,75,10.29,AR,2019-11-12 23:36:35
176,Vung Tau,10.35,107.08,76.6,86,6,5.17,VN,2019-11-12 23:47:39
177,Bandarbeyla,9.49,50.81,79.57,81,19,16.64,SO,2019-11-12 23:41:26
178,Victoria,5.28,115.24,82.4,83,75,3.36,BN,2019-11-12 23:40:21
179,Saint-Philippe,45.36,-73.48,19.99,61,1,18.34,CA,2019-11-12 23:38:36
180,Vestmanna,62.16,-7.17,35.6,74,76,4.7,FO,2019-11-12 23:39:07
181,Kyren,51.68,102.13,-9.84,85,51,10.36,RU,2019-11-12 23:40:35
182,Pierre,44.37,-100.35,30.2,74,1,4.47,US,2019-11-12 23:46:09
183,Kasongo-Lunda,-6.48,16.82,67.32,98,91,0.13,CD,2019-11-12 23:47:41
184,Japura,-0.42,102.29,75.49,94,91,0.85,ID,2019-11-12 23:41:25
185,Kutum,14.2,24.66,67.3,22,41,1.43,SD,2019-11-12 23:38:34
186,Poltavka,54.36,71.76,30.16,93,86,6.22,RU,2019-11-12 23:47:41
187,Acapulco,16.86,-99.88,86.0,70,20,5.82,MX,2019-11-12 23:42:41
188,Sorong,-0.86,131.25,82.96,74,50,6.29,ID,2019-11-12 23:38:53
189,Lorengau,-2.02,147.27,82.49,73,100,5.55,PG,2019-11-12 23:42:18
190,Port Lincoln,-34.72,135.86,62.06,52,40,10.49,AU,2019-11-12 23:38:55
191,Kieta,-6.22,155.63,81.82,74,99,19.06,PG,2019-11-12 23:47:42
192,Areosa,41.72,-8.86,64.99,100,75,9.17,PT,2019-11-12 23:47:43
193,Longyearbyen,78.22,15.63,32.0,97,40,14.99,NO,2019-11-12 23:39:53
194,Semarang,-6.99,110.42,87.01,74,57,4.97,ID,2019-11-12 23:47:43
195,East London,-33.02,27.91,70.09,76,65,12.71,ZA,2019-11-12 23:38:58
196,Soyo,-6.13,12.37,79.11,84,100,3.49,AO,2019-11-12 23:44:46
197,Gamba,28.28,88.52,24.3,40,0,0.83,CN,2019-11-12 23:40:04
198,Petropavlovsk-Kamchatskiy,53.05,158.65,32.0,65,75,6.71,RU,2019-11-12 23:44:11
199,Tateyama,36.66,137.31,55.0,66,20,4.7,JP,2019-11-12 23:43:55
200,Jalu,29.03,21.55,67.77,52,100,11.05,LY,2019-11-12 23:47:45
201,Yulara,-25.24,130.99,71.6,24,75,24.16,AU,2019-11-12 23:39:52
202,Kilindoni,-7.91,39.67,79.92,71,47,8.1,TZ,2019-11-12 23:47:45
203,Mutare,-18.97,32.67,66.42,91,100,3.56,MZ,2019-11-12 23:47:45
204,Muroto,33.37,134.14,57.2,71,75,8.05,JP,2019-11-12 23:47:45
205,Hauterive,49.18,-68.27,28.4,73,90,16.11,CA,2019-11-12 23:42:50
206,Sept-Iles,50.2,-66.38,19.99,85,90,16.11,CA,2019-11-12 23:40:24
207,Mogocha,53.73,119.76,-13.13,88,30,1.52,RU,2019-11-12 23:47:46
208,Phuket,7.89,98.4,73.4,88,20,1.12,TH,2019-11-12 23:47:46
209,Fresnillo,23.17,-102.87,55.4,76,90,13.87,MX,2019-11-12 23:47:46
210,Mackay,53.65,-115.58,35.6,94,90,5.82,CA,2019-11-12 23:47:47
211,Lima,-12.06,-77.04,66.2,82,90,13.87,PE,2019-11-12 23:45:16
212,Ariquemes,-9.91,-63.03,75.87,91,65,0.78,BR,2019-11-12 23:47:47
213,Hambantota,6.12,81.12,79.41,81,56,10.78,LK,2019-11-12 23:40:14
214,Rundu,-17.91,19.77,77.0,57,100,4.7,NA,2019-11-12 23:47:48
215,Menongue,-14.66,17.68,62.87,91,100,3.27,AO,2019-11-12 23:47:48
216,Hoshiarpur,31.53,75.9,61.16,51,100,3.47,IN,2019-11-12 23:47:48
217,Olinda,-37.84,145.39,59.0,58,90,16.11,AU,2019-11-12 23:44:22
218,Rzhev,56.26,34.33,33.44,91,100,6.2,RU,2019-11-12 23:47:49
219,Te Anau,-45.41,167.72,48.9,90,98,1.25,NZ,2019-11-12 23:41:53
220,Kishi,9.08,3.85,76.08,73,72,5.86,NG,2019-11-12 23:47:50
221,Gratia,44.44,25.45,57.2,87,75,13.87,RO,2019-11-12 23:47:50
222,Tonantins,-2.86,-67.77,75.11,96,83,2.53,BR,2019-11-12 23:47:50
223,Vila Franca Do Campo,37.72,-25.43,64.4,72,20,8.05,PT,2019-11-12 23:40:28
224,Galesong,-5.32,119.37,82.4,78,20,5.82,ID,2019-11-12 23:47:51
225,Tecoanapa,16.99,-99.26,86.0,70,20,5.82,MX,2019-11-12 23:47:51
226,Adrar,27.87,-0.29,59.0,41,1,2.71,DZ,2019-11-12 23:39:45
227,Chitipa,-9.7,33.27,65.1,84,0,2.17,MW,2019-11-12 23:47:51
228,Oranjemund,-28.55,16.43,57.81,87,0,2.57,ZA,2019-11-12 23:41:57
229,Souillac,45.6,-0.6,44.6,93,90,3.36,FR,2019-11-12 23:39:53
230,Nantucket,41.28,-70.1,33.8,86,90,14.99,US,2019-11-12 23:39:56
231,Hofn,64.25,-15.21,39.49,70,98,20.13,IS,2019-11-12 23:38:53
232,Quesnel,52.98,-122.49,41.0,80,90,10.29,CA,2019-11-12 23:45:08
233,Horodyshche,50.76,29.29,50.0,93,85,11.18,UA,2019-11-12 23:47:53
234,Sangar,63.92,127.47,-21.57,96,99,1.95,RU,2019-11-12 23:39:39
235,Clyde River,70.47,-68.59,14.0,92,90,26.4,CA,2019-11-12 23:39:20
236,Shuyskoye,59.37,41.03,34.21,87,91,7.36,RU,2019-11-12 23:47:53
237,Romanovo,56.49,40.39,32.61,93,8,6.73,RU,2019-11-12 23:47:53
238,Margate,-43.03,147.26,57.99,43,40,16.11,AU,2019-11-12 23:39:13
239,Tiarei,-17.53,-149.33,86.0,62,40,5.82,PF,2019-11-12 23:47:54
240,Kijang,35.24,129.21,46.4,87,0,5.82,KR,2019-11-12 23:47:54
241,Yantal,56.85,105.25,-0.75,97,100,3.42,RU,2019-11-12 23:47:55
242,Ojinaga,29.56,-104.41,39.2,51,90,5.82,US,2019-11-12 23:44:28
243,Kisangani,0.52,25.21,67.84,99,85,1.3,CD,2019-11-12 23:47:55
244,Ust-Tsilma,65.44,52.15,9.95,84,100,7.0,RU,2019-11-12 23:40:35
245,Pochutla,15.74,-96.47,84.2,74,40,11.41,MX,2019-11-12 23:47:56
246,Kruisfontein,-34.0,24.73,59.95,91,90,13.85,ZA,2019-11-12 23:40:28
247,Mezen,65.85,44.24,16.36,94,100,6.71,RU,2019-11-12 23:42:54
248,Maumere,-8.63,122.22,84.36,54,0,3.44,ID,2019-11-12 23:47:56
249,Hithadhoo,-0.6,73.08,81.68,81,100,15.64,MV,2019-11-12 23:35:41
250,Kirakira,-10.46,161.92,83.7,67,97,5.01,SB,2019-11-12 23:39:50
251,Marzuq,14.4,46.47,62.76,71,0,2.55,YE,2019-11-12 23:40:29
252,Gat,14.69,-16.54,77.0,53,38,4.7,SN,2019-11-12 23:39:17
253,Guntakal,15.16,77.38,70.61,87,40,5.1,IN,2019-11-12 23:47:58
254,Inirida,3.87,-67.92,75.6,96,100,1.57,CO,2019-11-12 23:43:38
255,Zelenogorskiy,55.03,87.0,23.0,85,90,8.95,RU,2019-11-12 23:47:58
256,Torbay,47.66,-52.73,44.01,93,90,20.8,CA,2019-11-12 23:39:05
257,Northam,-31.65,116.67,69.8,37,0,13.87,AU,2019-11-12 23:41:30
258,Uige,-7.61,15.06,66.07,98,36,0.47,AO,2019-11-12 23:47:59
259,Ostersund,63.18,14.64,33.8,91,99,10.29,SE,2019-11-12 23:47:59
260,Campo Verde,-8.47,-74.81,35.6,100,40,2.24,PE,2019-11-12 23:47:59
261,Dingle,11.0,122.67,77.18,87,100,5.53,PH,2019-11-12 23:41:58
262,Grand Gaube,-20.01,57.66,75.99,88,75,7.14,MU,2019-11-12 23:39:14
263,Severnoye,54.09,52.54,35.76,99,100,6.35,RU,2019-11-12 23:45:08
264,Juneau,58.3,-134.42,39.2,93,90,4.81,US,2019-11-12 23:36:04
265,Arcachon,44.65,-1.18,50.0,100,75,4.7,FR,2019-11-12 23:48:01
266,The Valley,18.22,-63.06,82.4,74,40,6.93,AI,2019-11-12 23:46:47
267,Gobabis,-22.45,18.97,72.0,7,89,15.41,NA,2019-11-12 23:39:37
268,Olga,34.11,-118.17,86.0,19,1,9.17,US,2019-11-12 23:42:21
269,Almeirim,-1.53,-52.58,83.75,58,35,4.23,BR,2019-11-12 23:48:02
270,Grindavik,63.84,-22.43,37.4,80,75,12.75,IS,2019-11-12 23:39:59
271,Padang,-0.92,100.36,69.12,92,81,2.93,ID,2019-11-12 23:39:28
272,Alta Floresta,-9.87,-56.08,72.61,95,88,3.78,BR,2019-11-12 23:44:31
273,Novopetrovskoye,55.99,36.47,35.6,90,75,4.47,RU,2019-11-12 23:48:02
274,Lebu,8.96,38.73,59.0,51,20,9.17,ET,2019-11-12 23:38:41
275,Ahipara,-35.17,173.16,70.0,79,36,13.2,NZ,2019-11-12 23:39:44
276,Pevek,69.7,170.27,16.57,86,0,3.42,RU,2019-11-12 23:40:17
277,Sao Felix Do Xingu,-6.64,-51.99,71.47,96,100,6.46,BR,2019-11-12 23:48:03
278,Manuk Mangkaw,4.8,119.85,82.71,77,100,8.48,PH,2019-11-12 23:48:03
279,Pisco,-13.71,-76.2,71.6,30,75,16.11,PE,2019-11-12 23:38:57
280,Puerto Madryn,-42.77,-65.04,57.2,87,75,11.41,AR,2019-11-12 23:45:10
281,Srednekolymsk,67.46,153.71,3.61,93,99,10.09,RU,2019-11-12 23:42:07
282,Saint-Georges,46.12,-70.67,19.0,92,100,5.01,CA,2019-11-12 23:48:04
283,Kidal,18.44,1.41,63.41,29,0,10.02,ML,2019-11-12 23:48:04
284,Nome,30.04,-94.42,44.6,52,1,9.17,US,2019-11-12 23:41:42
285,Ormara,25.21,64.64,77.63,43,19,8.93,PK,2019-11-12 23:39:27
286,Auki,12.18,6.51,80.26,43,83,4.18,NG,2019-11-12 23:41:59
287,Chebenki,51.93,55.71,35.6,100,90,5.7,RU,2019-11-12 23:48:05
288,Jabinyanah,35.03,10.91,51.8,66,20,10.29,TN,2019-11-12 23:48:05
289,Tuy Hoa,13.08,109.3,77.14,86,89,4.63,VN,2019-11-12 23:47:54
290,Qasigiannguit,68.82,-51.19,35.6,43,75,13.87,GL,2019-11-12 23:45:05
291,Faro,37.02,-7.94,60.01,82,75,2.24,PT,2019-11-12 23:48:06
292,Nishihara,35.74,139.53,59.0,58,75,4.7,JP,2019-11-12 23:48:06
293,Anzio,41.45,12.63,57.2,76,40,4.7,IT,2019-11-12 23:48:07
294,Kapuskasing,49.42,-82.43,3.2,71,90,3.36,CA,2019-11-12 23:48:07
295,Ayan,38.23,44.7,29.75,38,80,0.85,IR,2019-11-12 23:48:07
296,Tiksi,71.64,128.87,-7.69,98,100,5.08,RU,2019-11-12 23:39:08
297,Dalhousie,48.06,-66.37,30.2,100,90,6.93,CA,2019-11-12 23:48:07
298,Lavrentiya,65.58,-170.99,32.86,86,100,18.81,RU,2019-11-12 23:40:37
299,Ahuimanu,21.44,-157.84,86.0,65,20,9.17,US,2019-11-12 23:38:57
300,Lufilufi,-13.87,-171.6,86.0,74,49,11.01,WS,2019-11-12 23:48:08
301,Batagay,67.65,134.64,-11.38,97,100,1.54,RU,2019-11-12 23:48:08
302,Dakar,14.69,-17.45,73.4,88,18,4.7,SN,2019-11-12 23:41:07
303,Abeche,13.83,20.83,73.51,15,66,2.93,TD,2019-11-12 23:48:09
304,Shelburne,44.08,-80.2,19.99,72,40,5.82,CA,2019-11-12 23:45:09
305,Miles City,46.41,-105.84,45.0,60,90,5.82,US,2019-11-12 23:38:36
306,Hamilton,43.26,-79.87,23.0,61,20,3.36,CA,2019-11-12 23:39:18
307,Isla Mujeres,21.23,-86.73,77.0,94,90,3.36,MX,2019-11-12 23:45:18
308,Paranga,-3.29,38.4,66.38,91,35,1.88,KE,2019-11-12 23:48:10
309,Urengoy,65.96,78.37,-5.89,97,0,10.6,RU,2019-11-12 23:48:10
310,Merrill,42.03,-121.6,63.0,39,1,4.7,US,2019-11-12 23:43:38
311,Tsogni,-2.79,10.1,78.15,87,100,7.11,GA,2019-11-12 23:48:10
312,Mahebourg,-20.41,57.7,75.99,88,75,4.94,MU,2019-11-12 23:39:18
313,Bridgetown,-33.96,116.14,64.99,63,0,1.01,AU,2019-11-12 23:48:11
314,Hay River,60.82,-115.79,21.2,73,75,6.93,CA,2019-11-12 23:45:09
315,Ngunguru,-35.62,174.5,68.0,58,16,11.99,NZ,2019-11-12 23:44:05
316,Pitimbu,-7.47,-34.81,77.0,78,20,6.93,BR,2019-11-12 23:48:12
317,Geraldton,49.72,-86.95,3.2,77,75,3.36,CA,2019-11-12 23:38:19
318,Carnarvon,-30.97,22.13,53.19,77,0,18.7,ZA,2019-11-12 23:38:40
319,Lusambo,-4.97,23.44,67.53,99,98,1.1,CD,2019-11-12 23:48:13
320,Abai,41.35,68.95,33.8,86,0,4.7,KZ,2019-11-12 23:48:13
321,Echirolles,45.14,5.73,39.0,93,75,2.24,FR,2019-11-12 23:48:13
322,Miguel Auza,24.29,-103.45,44.31,92,100,9.46,MX,2019-11-12 23:48:14
323,Mehamn,71.03,27.85,18.12,92,76,15.05,NO,2019-11-12 23:48:14
324,Blagoveshchensk,50.29,127.53,5.0,65,20,4.47,RU,2019-11-12 23:48:14
325,Bahar,34.91,48.44,26.6,68,0,2.24,IR,2019-11-12 23:48:15
326,Nouadhibou,20.93,-17.03,66.2,82,6,13.87,MR,2019-11-12 23:39:05
327,Saint-Pierre,48.95,4.24,37.4,100,6,9.17,FR,2019-11-12 23:39:44
328,Saint George,39.45,22.34,60.8,93,90,6.13,GR,2019-11-12 23:39:05
329,Chipinge,-20.19,32.62,66.42,89,100,3.02,ZW,2019-11-12 23:44:50
330,Campo Maior,-4.83,-42.16,86.65,47,92,13.0,BR,2019-11-12 23:48:16
331,Tabou,4.42,-7.36,76.35,94,0,3.38,CI,2019-11-12 23:38:45
332,Norman Wells,65.28,-126.83,6.8,77,90,18.34,CA,2019-11-12 23:36:35
333,Redcliffe,-31.94,115.94,73.0,48,0,18.34,AU,2019-11-12 23:48:16
334,Lasa,34.92,32.53,73.4,29,97,9.17,CY,2019-11-12 23:42:27
335,Mutoko,-17.4,32.23,68.86,74,100,4.09,ZW,2019-11-12 23:48:17
336,Ouadda,8.07,22.4,67.46,55,42,0.18,CF,2019-11-12 23:48:17
337,Matagami,9.67,8.4,71.02,89,100,1.54,NG,2019-11-12 23:39:31
338,Banda Aceh,5.56,95.32,73.83,91,74,1.83,ID,2019-11-12 23:42:40
339,Dwarka,28.58,77.04,62.6,77,98,2.48,IN,2019-11-12 23:39:22
340,Rognan,67.1,15.4,34.0,64,75,24.16,NO,2019-11-12 23:48:18
341,Road Town,18.42,-64.62,82.4,69,20,5.82,VG,2019-11-12 23:44:41
342,Belaya Gora,68.54,146.19,4.69,96,100,2.26,RU,2019-11-12 23:42:37
343,Port-Gentil,-0.72,8.78,77.0,94,40,2.24,GA,2019-11-12 23:39:33
344,Kuopio,62.89,27.68,28.4,92,90,11.41,FI,2019-11-12 23:48:19
345,Cabedelo,-6.97,-34.84,77.0,78,20,6.93,BR,2019-11-12 23:48:19
346,Sitka,37.17,-99.65,41.0,31,0,7.0,US,2019-11-12 23:40:36
347,Taltal,-25.41,-70.49,58.21,83,0,3.06,CL,2019-11-12 23:42:47
348,Waipawa,-39.94,176.59,64.99,55,1,10.0,NZ,2019-11-12 23:44:14
349,Wanning,48.64,13.53,37.0,100,75,8.05,AT,2019-11-12 23:38:30
350,Scarborough,54.28,-0.41,45.0,81,77,10.29,GB,2019-11-12 23:45:49
351,Dunedin,-45.87,170.5,55.99,84,100,13.0,NZ,2019-11-12 23:40:23
352,Hobyo,5.35,48.53,77.27,82,0,12.64,SO,2019-11-12 23:48:21
353,Luderitz,-26.65,15.16,62.6,72,0,9.17,NA,2019-11-12 23:39:03
354,Kendari,-3.99,122.52,87.4,63,53,0.94,ID,2019-11-12 23:43:27
355,Indaiatuba,-23.09,-47.22,72.0,68,0,20.8,BR,2019-11-12 23:48:22
356,Sola,-3.17,33.8,67.37,67,17,5.64,TZ,2019-11-12 23:39:15
357,Mattru,7.62,-11.83,75.76,94,52,2.91,SL,2019-11-12 23:42:22
358,Trat,12.25,102.51,84.0,10,0,4.61,TH,2019-11-12 23:40:21
359,Saskylakh,71.97,114.09,-23.86,87,0,5.17,RU,2019-11-12 23:38:38
360,Gornopravdinsk,60.06,69.92,-1.41,96,93,4.03,RU,2019-11-12 23:42:35
361,Labuhan,-2.54,115.51,81.32,74,63,1.83,ID,2019-11-12 23:38:37
362,Gardez,33.6,69.22,33.76,93,16,0.67,AF,2019-11-12 23:48:23
363,Zanjan,36.67,48.48,30.2,63,0,4.7,IR,2019-11-12 23:48:23
364,Sabang,13.8,121.11,77.0,79,100,6.15,PH,2019-11-12 23:39:46
365,Cuenca,-2.9,-79.0,60.8,87,90,8.05,EC,2019-11-12 23:48:24
366,Maceio,-9.67,-35.74,75.2,78,67,3.36,BR,2019-11-12 23:38:55
367,Chapais,49.78,-74.86,10.4,85,90,14.99,CA,2019-11-12 23:41:33
368,Putina,-14.91,-69.87,48.2,66,75,13.87,PE,2019-11-12 23:48:24
369,Ginda,30.69,78.49,52.63,19,61,5.19,IN,2019-11-12 23:48:25
370,Nosy Varika,-20.58,48.53,74.79,88,97,2.8,MG,2019-11-12 23:48:25
371,Dimona,31.07,35.04,73.0,58,73,4.0,IL,2019-11-12 23:42:26
372,Tilichiki,60.47,166.1,23.94,84,61,5.95,RU,2019-11-12 23:41:33
373,Madang,35.32,102.79,25.99,52,0,4.76,CN,2019-11-12 23:48:26
374,Lalin,45.23,126.86,23.0,85,75,6.71,CN,2019-11-12 23:48:26
375,Lesosibirsk,58.22,92.49,9.86,95,100,6.53,RU,2019-11-12 23:48:26
376,Beloha,-25.17,45.06,68.07,84,98,17.76,MG,2019-11-12 23:38:59
377,Yenagoa,4.92,6.26,75.56,96,86,2.75,NG,2019-11-12 23:38:59
378,Trincomalee,8.58,81.23,73.22,96,63,0.92,LK,2019-11-12 23:48:27
379,Qaqortoq,60.72,-46.03,32.0,73,94,4.7,GL,2019-11-12 23:48:27
380,Tokur,53.13,132.9,-2.93,93,100,0.98,RU,2019-11-12 23:48:27
381,Ejea De Los Caballeros,42.13,-1.14,51.01,81,90,2.48,ES,2019-11-12 23:48:27
382,Mount Isa,-20.73,139.49,84.2,10,36,14.99,AU,2019-11-12 23:39:55
383,Corinto,3.17,-76.26,71.6,88,75,6.93,CO,2019-11-12 23:48:28
384,Pontal Do Parana,-25.67,-48.51,75.0,73,40,5.82,BR,2019-11-12 23:48:28
385,Rincon,8.46,-82.28,78.8,94,40,4.7,PA,2019-11-12 23:48:28
386,Zrece,46.38,15.38,45.0,93,100,8.05,SI,2019-11-12 23:48:28
387,Faya,18.39,42.45,57.2,81,0,5.57,SA,2019-11-12 23:42:50
388,Alice Springs,-23.7,133.88,69.8,19,31,19.46,AU,2019-11-12 23:35:28
389,Boulsa,12.66,-0.57,79.02,14,0,7.18,BF,2019-11-12 23:48:29
390,Manhattan,39.18,-96.57,32.0,30,1,10.29,US,2019-11-12 23:44:06
391,Natal,-5.81,-35.21,78.8,74,40,12.75,BR,2019-11-12 23:48:29
392,Samarai,-10.62,150.67,77.83,79,76,5.88,PG,2019-11-12 23:39:38
393,Winnemucca,40.97,-117.74,62.6,25,1,3.36,US,2019-11-12 23:43:52
394,Rawson,-43.3,-65.11,57.2,87,75,11.41,AR,2019-11-12 23:42:17
395,Yarqa,31.98,35.69,64.99,72,25,9.17,JO,2019-11-12 23:48:30
396,Cockburn Town,21.46,-71.14,84.2,70,40,9.17,TC,2019-11-12 23:39:37
397,Aleksandrovsk-Sakhalinskiy,50.9,142.16,28.22,61,30,20.51,RU,2019-11-12 23:48:31
398,Bonthe,7.53,-12.5,79.0,86,34,4.72,SL,2019-11-12 23:48:31
399,Ponta Delgada,37.73,-25.67,64.4,72,20,8.05,PT,2019-11-12 23:48:31
400,Turukhansk,65.8,87.96,1.99,97,100,4.54,RU,2019-11-12 23:41:43
401,Dhidhdhoo,6.88,73.1,83.37,73,71,10.51,MV,2019-11-12 23:48:32
402,Bom Jesus,-9.08,-44.36,77.61,35,0,3.02,BR,2019-11-12 23:48:32
403,Diamantino,-14.4,-56.44,71.85,94,96,2.17,BR,2019-11-12 23:48:32
404,Santiago Del Estero,-27.8,-64.26,80.47,62,94,4.14,AR,2019-11-12 23:39:31
405,Laguna,16.17,-88.94,84.2,74,40,6.93,BZ,2019-11-12 23:39:11
406,Kavieng,-2.57,150.8,80.44,76,100,6.82,PG,2019-11-12 23:39:06
407,Bachaquero,9.96,-71.12,76.48,89,84,2.86,VE,2019-11-12 23:48:33
408,Flinders,-34.58,150.85,70.0,16,0,10.29,AU,2019-11-12 23:40:26
409,Titusville,41.62,-79.67,24.01,85,90,6.93,US,2019-11-12 23:48:33
410,Narragansett,41.45,-71.45,32.0,67,90,19.46,US,2019-11-12 23:48:34
411,Araouane,18.9,-3.53,70.02,25,0,12.59,ML,2019-11-12 23:48:34
412,Eureka,40.8,-124.16,64.99,100,90,5.82,US,2019-11-12 23:44:30
413,Palora,-1.7,-77.97,69.8,100,90,2.24,EC,2019-11-12 23:48:34
414,Spornoye,50.84,37.29,35.6,93,39,4.47,RU,2019-11-12 23:48:34
415,Anuppur,23.12,81.7,58.84,70,86,1.36,IN,2019-11-12 23:48:35
416,Am Timan,11.04,20.28,75.83,30,84,1.5,TD,2019-11-12 23:48:35
417,Ust-Koksa,50.27,85.62,9.64,80,100,12.73,RU,2019-11-12 23:48:35
418,Ancud,-41.87,-73.83,51.89,90,100,10.42,CL,2019-11-12 23:40:04
419,Antofagasta,-23.65,-70.4,62.6,82,20,8.05,CL,2019-11-12 23:45:02
420,Okhotsk,59.36,143.24,13.55,72,100,20.27,RU,2019-11-12 23:40:17
421,Taraz,42.89,71.39,28.99,100,0,6.71,KZ,2019-11-12 23:48:36
422,Umm Lajj,25.02,37.27,75.31,64,0,1.52,SA,2019-11-12 23:48:36
423,Novovarshavka,54.17,74.7,29.66,95,91,7.81,RU,2019-11-12 23:48:36
424,Mount Gambier,-37.83,140.78,53.6,87,40,13.87,AU,2019-11-12 23:40:33
425,Esqueda,30.72,-109.59,56.62,51,0,10.33,MX,2019-11-12 23:48:37
426,Kaeo,-35.1,173.78,70.0,77,0,17.49,NZ,2019-11-12 23:44:03
427,Westport,41.14,-73.36,34.0,57,1,10.29,US,2019-11-12 23:43:40
428,Kawalu,-7.38,108.21,74.01,85,75,3.27,ID,2019-11-12 23:48:37
429,Krasnoarmeysk,56.12,38.15,39.99,89,75,4.47,RU,2019-11-12 23:48:37
430,Meridian,43.61,-116.39,48.2,34,1,5.82,US,2019-11-12 23:45:19
431,Tautira,-17.73,-149.15,86.0,58,40,9.17,PF,2019-11-12 23:39:19
432,Key West,47.93,-96.78,19.4,62,1,21.92,US,2019-11-12 23:45:02
433,Karratha,-20.74,116.85,82.09,53,26,8.77,AU,2019-11-12 23:39:07
434,Les Cayes,18.19,-73.75,82.89,74,7,8.59,HT,2019-11-12 23:39:40
435,Asyut,27.18,31.19,71.6,56,17,6.93,EG,2019-11-12 23:48:39
436,Dongsheng,29.72,112.52,59.81,50,100,16.46,CN,2019-11-12 23:44:07
437,Avera,33.19,-82.53,46.4,93,90,3.36,US,2019-11-12 23:38:52
438,Loukhi,66.08,33.04,15.49,96,87,4.18,RU,2019-11-12 23:48:39
439,Robertsport,6.75,-11.37,81.72,78,23,6.85,LR,2019-11-12 23:48:40
440,Lagoa,37.14,-8.45,60.01,82,75,2.24,PT,2019-11-12 23:38:51
441,Fort Nelson,58.81,-122.69,21.2,85,75,2.24,CA,2019-11-12 23:39:45
442,Kikwit,-5.04,18.82,71.51,95,100,2.73,CD,2019-11-12 23:42:43
443,Mweka,-4.85,21.56,70.3,99,100,0.87,CD,2019-11-12 23:48:40
444,Kautokeino,69.01,23.04,12.69,95,100,3.47,NO,2019-11-12 23:48:41
445,Cap-Haitien,19.76,-72.2,82.35,75,15,11.18,HT,2019-11-12 23:48:42
446,Belgaum,15.87,74.5,65.17,85,0,6.29,IN,2019-11-12 23:48:42
447,Aloleng,16.13,119.78,76.26,77,95,2.33,PH,2019-11-12 23:48:42
448,Ossora,59.24,163.07,28.51,60,0,6.35,RU,2019-11-12 23:40:03
449,Namibe,-15.19,12.15,73.02,81,1,8.72,AO,2019-11-12 23:39:58
450,Truckee,39.33,-120.18,69.8,15,1,11.41,US,2019-11-12 23:44:10
451,Paita,-5.09,-81.11,67.98,78,10,13.31,PE,2019-11-12 23:48:43
452,Marsa Matruh,31.35,27.25,68.0,60,35,9.17,EG,2019-11-12 23:46:42
453,Yantai,37.53,121.39,55.99,72,100,15.55,CN,2019-11-12 23:48:44
454,Jerome,34.75,-112.11,69.8,16,1,3.36,US,2019-11-12 23:48:44
455,Warrnambool,-38.38,142.48,55.99,46,83,13.0,AU,2019-11-12 23:48:44
456,Fortuna,40.6,-124.16,62.01,100,90,5.82,US,2019-11-12 23:48:44
457,Sao Gabriel Da Cachoeira,-0.13,-67.09,72.27,97,100,1.14,BR,2019-11-12 23:48:44
458,Wajid,3.81,43.25,74.62,64,15,8.03,SO,2019-11-12 23:40:18
459,Maputo,-25.97,32.57,75.0,86,81,5.99,MZ,2019-11-12 23:43:57
460,Vao,59.1,26.19,40.5,87,100,11.12,EE,2019-11-12 23:39:09
461,Viedma,-40.81,-62.99,57.36,95,6,6.87,AR,2019-11-12 23:48:45
462,Stawell,-37.06,142.77,55.89,53,35,12.06,AU,2019-11-12 23:48:46
463,Guangzhou,23.13,113.26,75.99,77,39,2.24,CN,2019-11-12 23:47:58
464,Bellevue,50.05,10.19,39.99,100,40,6.93,DE,2019-11-12 23:47:37
465,Barra Do Garcas,-15.89,-52.26,77.85,65,34,2.86,BR,2019-11-12 23:48:46
466,Solnechnyy,50.72,136.64,13.3,69,24,1.72,RU,2019-11-12 23:48:46
467,Linhares,-19.38,-40.06,72.37,94,77,4.41,BR,2019-11-12 23:39:21
468,Ochakiv,46.61,31.55,53.6,93,90,13.42,UA,2019-11-12 23:48:47
469,Naze,5.43,7.07,74.55,91,100,3.0,NG,2019-11-12 23:39:43
470,Bayshore Gardens,27.43,-82.59,77.0,88,90,11.41,US,2019-11-12 23:48:48
471,Forestville,48.74,-69.09,28.4,86,90,25.28,CA,2019-11-12 23:48:48
472,Haines Junction,60.75,-137.51,15.01,95,93,2.73,CA,2019-11-12 23:39:32
473,Corinth,37.94,22.93,68.0,93,40,6.22,GR,2019-11-12 23:46:07
474,Klaksvik,62.23,-6.59,35.6,74,98,4.7,FO,2019-11-12 23:39:22
475,Havre-Saint-Pierre,50.23,-63.6,21.2,92,90,24.16,CA,2019-11-12 23:39:41
476,Suluq,31.67,20.25,63.19,59,100,5.66,LY,2019-11-12 23:48:49
477,Kotma,23.2,81.98,58.77,72,65,1.21,IN,2019-11-12 23:48:49
478,Yumen,40.29,97.04,23.04,78,24,18.45,CN,2019-11-12 23:48:50
479,Trelew,-43.25,-65.31,57.2,87,75,11.41,AR,2019-11-12 23:44:32
480,Port Macquarie,-31.43,152.91,77.0,33,90,10.29,AU,2019-11-12 23:41:19
481,Mastic Beach,40.77,-72.85,34.0,62,75,11.41,US,2019-11-12 23:34:45
482,Campbellsville,37.34,-85.34,21.99,73,75,3.36,US,2019-11-12 23:48:50
483,Esperantina,-3.89,-42.23,77.85,75,83,7.81,BR,2019-11-12 23:48:51
484,Cedar City,37.68,-113.06,60.8,19,1,4.7,US,2019-11-12 23:45:38
485,Praia,-20.25,-43.81,63.48,90,83,9.86,BR,2019-11-12 23:41:20
486,Xinye,32.53,112.36,59.14,36,93,11.34,CN,2019-11-12 23:41:45
487,Denpasar,-8.65,115.22,80.6,94,75,2.24,ID,2019-11-12 23:41:26
488,Umba,66.69,34.34,24.71,85,97,8.9,RU,2019-11-12 23:48:52
489,Whitley Bay,55.04,-1.44,43.0,93,75,8.05,GB,2019-11-12 23:48:52
490,Belyy Yar,53.6,91.39,15.8,85,97,2.24,RU,2019-11-12 23:48:52
491,Ardatov,55.24,43.1,32.52,95,29,5.39,RU,2019-11-12 23:42:55
492,Huarmey,-10.07,-78.15,63.82,84,2,3.24,PE,2019-11-12 23:40:10
493,Bilma,18.69,12.92,73.45,17,51,6.38,NE,2019-11-12 23:48:53
494,Muros,42.77,-9.06,64.99,100,75,9.17,ES,2019-11-12 23:39:30
495,Tashtyp,52.8,89.89,23.04,85,100,14.03,RU,2019-11-12 23:48:53
496,Burnie,-41.05,145.91,55.0,76,85,15.99,AU,2019-11-12 23:45:06
497,Punta Alta,-27.46,-55.82,86.0,66,67,4.7,AR,2019-11-12 23:46:26
498,Moba,-7.04,29.77,77.61,73,57,11.81,CD,2019-11-12 23:48:54
499,Maskinonge,46.23,-73.02,19.4,73,90,9.17,CA,2019-11-12 23:48:54
500,Rongcheng,37.16,122.42,56.61,75,100,12.37,CN,2019-11-12 23:48:54
501,Marrakesh,31.63,-7.99,55.4,62,0,4.7,MA,2019-11-12 23:48:54
502,Beverley,-32.11,116.93,70.36,32,0,9.53,AU,2019-11-12 23:48:55
503,San Cristobal,14.68,-86.92,67.05,89,47,3.4,HN,2019-11-12 23:46:34
504,Erenhot,43.65,111.97,13.21,40,89,16.82,CN,2019-11-12 23:48:55
505,Plettenberg Bay,-34.05,23.37,62.13,90,100,5.32,ZA,2019-11-12 23:45:08
506,Santa Helena De Goias,-17.81,-50.6,78.94,57,60,6.33,BR,2019-11-12 23:48:56
507,Broome,52.47,1.45,45.0,87,59,18.34,GB,2019-11-12 23:38:58
508,Moerai,-22.43,-151.33,71.56,79,67,21.77,PF,2019-11-12 23:42:12
509,Pacific Grove,36.62,-121.92,77.0,46,1,4.7,US,2019-11-12 23:48:56
510,Krasnogorsk,55.82,37.34,39.99,85,75,6.71,RU,2019-11-12 23:41:24
511,Oranjestad,12.52,-70.03,82.4,78,20,17.22,AW,2019-11-12 23:40:29
512,Laramie,41.31,-105.59,53.6,17,1,17.22,US,2019-11-12 23:48:57
513,Pringsewu,-5.36,104.98,74.93,93,100,1.74,ID,2019-11-12 23:46:43
514,Bayangol,48.91,106.09,-1.65,81,0,6.33,MN,2019-11-12 23:48:57
515,Kattivakkam,13.22,80.32,78.8,88,40,2.24,IN,2019-11-12 23:48:58
516,Arcoverde,-8.42,-37.06,64.26,92,1,6.67,BR,2019-11-12 23:47:26
517,Lixourion,38.2,20.43,63.0,91,100,27.25,GR,2019-11-12 23:48:58
518,Miyang,24.4,103.44,57.2,96,97,1.92,CN,2019-11-12 23:43:55
519,Arua,3.02,30.91,65.41,93,99,5.46,UG,2019-11-12 23:48:59
520,Praia Da Vitoria,38.73,-27.07,62.6,93,20,6.11,PT,2019-11-12 23:48:59
521,Tirumullaivasal,11.24,79.84,82.17,77,89,16.87,IN,2019-11-12 23:48:59
522,Port-Cartier,50.03,-66.88,19.99,85,90,16.11,CA,2019-11-12 23:48:59
523,Sarankhola,22.31,89.79,67.82,77,0,5.37,BD,2019-11-12 23:48:59
524,Lloydminster,53.28,-110.01,26.6,86,75,5.82,CA,2019-11-12 23:49:00
525,Hirara,24.8,125.28,71.6,73,40,5.82,JP,2019-11-12 23:39:01
526,Sur,22.57,59.53,72.05,47,0,8.1,OM,2019-11-12 23:39:47
527,Kribi,2.94,9.91,74.1,91,100,3.67,CM,2019-11-12 23:49:00
528,Bobcaygeon,44.54,-78.55,19.0,72,1,8.05,CA,2019-11-12 23:49:00
529,Talcahuano,-36.72,-73.12,62.6,77,36,8.05,CL,2019-11-12 23:48:22
530,Cao Bang,22.67,106.25,69.91,93,98,0.74,VN,2019-11-12 23:49:01
